{"type": "FeatureCollection", "features": [{"type": "Feature", "geometry": {"type": "Point", "coordinates": [-74.1889204, 4.6154408]}, "properties": {"id": 15310, "name": "Claudia Guiza", "order": 1}}, {"type": "Feature", "geometry": {"type": "Point", "coordinates": [-74.1871669, 4.615501]}, "properties": {"id": 717, "name": "Jos\u00e9 Luis Garc\u00eda Coronado", "order": 2}}, {"type": "Feature", "geometry": {"type": "Point", "coordinates": [-74.1865653, 4.6172617]}, "properties": {"id": 18743, "name": "Jos\u00e9 Quintero", "order": 3}}, {"type": "Feature", "geometry": {"type": "Point", "coordinates": [-74.1884852, 4.6172129]}, "properties": {"id": 723, "name": "Marisol Arias", "order": 4}}, {"type": "Feature", "geometry": {"type": "Point", "coordinates": [-74.188872, 4.6197396]}, "properties": {"id": 7759, "name": "fani correa pil", "order": 5}}, {"type": "Feature", "geometry": {"type": "Point", "coordinates": [-74.1901191, 4.6196878]}, "properties": {"id": 8194, "name": "luis enrique diaz", "order": 6}}, {"type": "Feature", "geometry": {"type": "Point", "coordinates": [-74.1906, 4.6203187]}, "properties": {"id": 10812, "name": "Olga Luc\u00eda torres", "order": 7}}, {"type": "Feature", "geometry": {"type": "Point", "coordinates": [-74.1918521, 4.6210877]}, "properties": {"id": 7572, "name": "ismael gonzalez", "order": 8}}, {"type": "Feature", "geometry": {"type": "Point", "coordinates": [-74.1935558, 4.6207203]}, "properties": {"id": 6334, "name": "Tatiana Farelo", "order": 9}}, {"type": "Feature", "geometry": {"type": "Point", "coordinates": [-74.1932537, 4.6225492]}, "properties": {"id": 16237, "name": "josima sierra", "order": 10}}, {"type": "Feature", "geometry": {"type": "Point", "coordinates": [-74.1898618, 4.6218721]}, "properties": {"id": 522, "name": "Sebastian lopez", "order": 11}}, {"type": "Feature", "geometry": {"type": "Point", "coordinates": [-74.189293, 4.622935]}, "properties": {"id": 8157, "name": "libardo avenda\u00f1o", "order": 12}}, {"type": "Feature", "geometry": {"type": "Point", "coordinates": [-74.1900183, 4.624132]}, "properties": {"id": 18010, "name": "Henry alfonso carranza", "order": 13}}, {"type": "Feature", "geometry": {"type": "Point", "coordinates": [-74.1877254, 4.6266957]}, "properties": {"id": 681, "name": "R\u00f3mulo Rojas Cruz", "order": 14}}, {"type": "Feature", "geometry": {"type": "Point", "coordinates": [-74.1862507, 4.6273323]}, "properties": {"id": 20351, "name": "Marcos antonio salinas torres", "order": 15}}, {"type": "Feature", "geometry": {"type": "Point", "coordinates": [-74.1852972, 4.6289504]}, "properties": {"id": 14318, "name": "fabio Andr\u00e9s pinz\u00f3n Gonzales", "order": 16}}, {"type": "Feature", "geometry": {"type": "Point", "coordinates": [-74.1838673, 4.6293045]}, "properties": {"id": 12802, "name": "mirian camargo", "order": 17}}, {"type": "Feature", "geometry": {"type": "Point", "coordinates": [-74.1843583, 4.631023]}, "properties": {"id": 25283, "name": "yoicy milena Losada caldon", "order": 18}}, {"type": "Feature", "geometry": {"type": "Point", "coordinates": [-74.1849939, 4.632597]}, "properties": {"id": 7466, "name": "Oscar Andres G\u00f3mez Toquica", "order": 19}}, {"type": "Feature", "geometry": {"type": "Point", "coordinates": [-74.185899, 4.6342321]}, "properties": {"id": 19796, "name": "ana belen quitian vargas", "order": 20}}, {"type": "Feature", "geometry": {"type": "Point", "coordinates": [-74.1833098, 4.6349946]}, "properties": {"id": 7334, "name": "Angel Andres Nieto Rubiano", "order": 21}}, {"type": "Feature", "geometry": {"type": "Point", "coordinates": [-74.1812988, 4.6370874]}, "properties": {"id": 29873, "name": "Diana Guzman", "order": 22}}, {"type": "Feature", "geometry": {"type": "Point", "coordinates": [-74.1881267, 4.6350589]}, "properties": {"id": 20938, "name": "albeiro Figueroa", "order": 23}}, {"type": "Feature", "geometry": {"type": "Point", "coordinates": [-74.187344, 4.632973]}, "properties": {"id": 21528, "name": "Jose gustavo castro gonsalez", "order": 24}}, {"type": "Feature", "geometry": {"type": "Point", "coordinates": [-74.1881452, 4.6315506]}, "properties": {"id": 32120, "name": "Mar\u00eda Lindaura Roberto Vanegas", "order": 25}}, {"type": "Feature", "geometry": {"type": "Point", "coordinates": [-74.1891454, 4.631764]}, "properties": {"id": 7452, "name": "Jacinto Arias", "order": 26}}, {"type": "Feature", "geometry": {"type": "Point", "coordinates": [-74.1881446, 4.6310001]}, "properties": {"id": 2294, "name": "Carlos Julio Baez Velandia", "order": 27}}, {"type": "Feature", "geometry": {"type": "Point", "coordinates": [-74.1874471, 4.6294796]}, "properties": {"id": 7699, "name": "Esperanza Arias Hurtado", "order": 28}}, {"type": "Feature", "geometry": {"type": "Point", "coordinates": [-74.1896028, 4.6292438]}, "properties": {"id": 11600, "name": "edwin hernan martinez rojas", "order": 29}}, {"type": "Feature", "geometry": {"type": "Point", "coordinates": [-74.1913075, 4.6257641]}, "properties": {"id": 7887, "name": "Rafael cardenas", "order": 30}}, {"type": "Feature", "geometry": {"type": "LineString", "coordinates": [[-74.1889204, 4.6154408], [-74.1871669, 4.615501], [-74.1865653, 4.6172617], [-74.1884852, 4.6172129], [-74.188872, 4.6197396], [-74.1901191, 4.6196878], [-74.1906, 4.6203187], [-74.1918521, 4.6210877], [-74.1935558, 4.6207203], [-74.1932537, 4.6225492], [-74.1898618, 4.6218721], [-74.189293, 4.622935], [-74.1900183, 4.624132], [-74.1877254, 4.6266957], [-74.1862507, 4.6273323], [-74.1852972, 4.6289504], [-74.1838673, 4.6293045], [-74.1843583, 4.631023], [-74.1849939, 4.632597], [-74.185899, 4.6342321], [-74.1833098, 4.6349946], [-74.1812988, 4.6370874], [-74.1881267, 4.6350589], [-74.187344, 4.632973], [-74.1881452, 4.6315506], [-74.1891454, 4.631764], [-74.1881446, 4.6310001], [-74.1874471, 4.6294796], [-74.1896028, 4.6292438], [-74.1913075, 4.6257641]]}, "properties": {"Route": "Bosa_3"}}]}