{"type": "FeatureCollection", "features": [{"type": "Feature", "geometry": {"type": "Point", "coordinates": [-74.1741274, 4.6381538]}, "properties": {"id": 19334, "name": "Brayan Manuel D\u00edaz Leyva", "order": 1}}, {"type": "Feature", "geometry": {"type": "Point", "coordinates": [-74.1749919, 4.6389147]}, "properties": {"id": 4536, "name": "Claudia Patricia Ca\u00f1\u00f3n Su\u00e1rez", "order": 2}}, {"type": "Feature", "geometry": {"type": "Point", "coordinates": [-74.1760425, 4.6418383]}, "properties": {"id": 508, "name": "Deyanira velandia", "order": 3}}, {"type": "Feature", "geometry": {"type": "Point", "coordinates": [-74.175965, 4.6435547]}, "properties": {"id": 6677, "name": "Jeisson David Garc\u00eda Mendoza", "order": 4}}, {"type": "Feature", "geometry": {"type": "Point", "coordinates": [-74.1716537, 4.6431652]}, "properties": {"id": 1265, "name": "Nancy Bohorquez", "order": 5}}, {"type": "Feature", "geometry": {"type": "Point", "coordinates": [-74.1715098, 4.6428783]}, "properties": {"id": 26064, "name": "Simon garrido", "order": 6}}, {"type": "Feature", "geometry": {"type": "Point", "coordinates": [-74.1709199, 4.6423468]}, "properties": {"id": 605, "name": "Emiro Vargas", "order": 7}}, {"type": "Feature", "geometry": {"type": "Point", "coordinates": [-74.1697358, 4.6501224]}, "properties": {"id": 4260, "name": "Jos\u00e9 \u00c1ngel Bustos Romero", "order": 8}}, {"type": "Feature", "geometry": {"type": "Point", "coordinates": [-74.1643038, 4.6463357]}, "properties": {"id": 15065, "name": "Alvaro Contreras", "order": 9}}, {"type": "Feature", "geometry": {"type": "Point", "coordinates": [-74.1623028, 4.6434435]}, "properties": {"id": 3573, "name": "Isabel garz\u00f3n", "order": 10}}, {"type": "Feature", "geometry": {"type": "Point", "coordinates": [-74.1594814, 4.6477332]}, "properties": {"id": 3504, "name": "Jes\u00fas humberto Rueda Valenzuela", "order": 11}}, {"type": "Feature", "geometry": {"type": "Point", "coordinates": [-74.1470425, 4.6457602]}, "properties": {"id": 24581, "name": "Yeny roc\u00edo le\u00f3n L\u00f3pez", "order": 12}}, {"type": "Feature", "geometry": {"type": "Point", "coordinates": [-74.14661, 4.6446313]}, "properties": {"id": 24417, "name": "juan cristancho", "order": 13}}, {"type": "Feature", "geometry": {"type": "Point", "coordinates": [-74.1473205, 4.6495604]}, "properties": {"id": 12513, "name": "Efrain B\u00e1ez", "order": 14}}, {"type": "Feature", "geometry": {"type": "Point", "coordinates": [-74.1402471, 4.6503609]}, "properties": {"id": 18366, "name": "Omar Alexander Ca\u00f1on Garz\u00f3n", "order": 15}}, {"type": "Feature", "geometry": {"type": "Point", "coordinates": [-74.1391651, 4.6526048]}, "properties": {"id": 24451, "name": "andres moreno", "order": 16}}, {"type": "Feature", "geometry": {"type": "Point", "coordinates": [-74.1394436, 4.6510191]}, "properties": {"id": 24488, "name": "Laura Camila Rodriguez Osorio", "order": 17}}, {"type": "Feature", "geometry": {"type": "Point", "coordinates": [-74.1405182, 4.650051]}, "properties": {"id": 6535, "name": "INMEARQUI SAS Arq Nelson Monroy", "order": 18}}, {"type": "Feature", "geometry": {"type": "Point", "coordinates": [-74.1419516, 4.6461185]}, "properties": {"id": 3497, "name": "yadyr alvarado", "order": 19}}, {"type": "Feature", "geometry": {"type": "Point", "coordinates": [-74.1446446, 4.6447394]}, "properties": {"id": 10213, "name": "Jose Aparicio Lopez Lopez", "order": 20}}, {"type": "Feature", "geometry": {"type": "Point", "coordinates": [-74.1427634, 4.6434184]}, "properties": {"id": 15953, "name": "Sandra patricia Escobar Montero", "order": 21}}, {"type": "Feature", "geometry": {"type": "Point", "coordinates": [-74.1419882, 4.6368262]}, "properties": {"id": 21296, "name": "Jaime Steven Arias Aya", "order": 22}}, {"type": "Feature", "geometry": {"type": "Point", "coordinates": [-74.1453643, 4.6379303]}, "properties": {"id": 17294, "name": "Juan pablo Parra", "order": 23}}, {"type": "Feature", "geometry": {"type": "Point", "coordinates": [-74.1543633, 4.6377777]}, "properties": {"id": 24508, "name": "Orlando gonzalez", "order": 24}}, {"type": "Feature", "geometry": {"type": "Point", "coordinates": [-74.1572761, 4.6362925]}, "properties": {"id": 8454, "name": "Carlos Galeano", "order": 25}}, {"type": "Feature", "geometry": {"type": "Point", "coordinates": [-74.1595753, 4.6402079]}, "properties": {"id": 812, "name": "Patricia L\u00f3pez", "order": 26}}, {"type": "Feature", "geometry": {"type": "Point", "coordinates": [-74.160699, 4.6399887]}, "properties": {"id": 5663, "name": "Elena Arias", "order": 27}}, {"type": "Feature", "geometry": {"type": "Point", "coordinates": [-74.1610177, 4.6387827]}, "properties": {"id": 3668, "name": "Victor hugo chacon", "order": 28}}, {"type": "Feature", "geometry": {"type": "Point", "coordinates": [-74.1605648, 4.6401131]}, "properties": {"id": 17297, "name": "Daniel Medina", "order": 29}}, {"type": "Feature", "geometry": {"type": "Point", "coordinates": [-74.1615878, 4.6409963]}, "properties": {"id": 24327, "name": "Aura Julia Bonilla Valero", "order": 30}}, {"type": "Feature", "geometry": {"type": "LineString", "coordinates": [[-74.1741274, 4.6381538], [-74.1749919, 4.6389147], [-74.1760425, 4.6418383], [-74.175965, 4.6435547], [-74.1716537, 4.6431652], [-74.1715098, 4.6428783], [-74.1709199, 4.6423468], [-74.1697358, 4.6501224], [-74.1643038, 4.6463357], [-74.1623028, 4.6434435], [-74.1594814, 4.6477332], [-74.1470425, 4.6457602], [-74.14661, 4.6446313], [-74.1473205, 4.6495604], [-74.1402471, 4.6503609], [-74.1391651, 4.6526048], [-74.1394436, 4.6510191], [-74.1405182, 4.650051], [-74.1419516, 4.6461185], [-74.1446446, 4.6447394], [-74.1427634, 4.6434184], [-74.1419882, 4.6368262], [-74.1453643, 4.6379303], [-74.1543633, 4.6377777], [-74.1572761, 4.6362925], [-74.1595753, 4.6402079], [-74.160699, 4.6399887], [-74.1610177, 4.6387827], [-74.1605648, 4.6401131], [-74.1615878, 4.6409963]]}, "properties": {"Route": "Kennedy_3"}}]}