{"type": "FeatureCollection", "features": [{"type": "Feature", "geometry": {"type": "Point", "coordinates": [-74.213834, 4.5819778]}, "properties": {"id": 1205, "name": "carlos castillo", "order": 1}}, {"type": "Feature", "geometry": {"type": "Point", "coordinates": [-74.2147005, 4.5818952]}, "properties": {"id": 15331, "name": "Antonio Villalobos", "order": 2}}, {"type": "Feature", "geometry": {"type": "Point", "coordinates": [-74.2140788, 4.5819486]}, "properties": {"id": 498, "name": "Arnulfo Rivera fuquene", "order": 3}}, {"type": "Feature", "geometry": {"type": "Point", "coordinates": [-74.2154003, 4.5830175]}, "properties": {"id": 13940, "name": "luis angel Arango Barrero", "order": 4}}, {"type": "Feature", "geometry": {"type": "Point", "coordinates": [-74.2157901, 4.5802371]}, "properties": {"id": 10245, "name": "NEMESIO GONZALES", "order": 5}}, {"type": "Feature", "geometry": {"type": "Point", "coordinates": [-74.2177639, 4.5808398]}, "properties": {"id": 491, "name": "Juan Carlos Ramirez", "order": 6}}, {"type": "Feature", "geometry": {"type": "Point", "coordinates": [-74.2170483, 4.5719154]}, "properties": {"id": 1473, "name": "Adriana Andrea Ruiz Ria\u00f1o", "order": 7}}, {"type": "Feature", "geometry": {"type": "Point", "coordinates": [-74.2173996, 4.5711256]}, "properties": {"id": 22235, "name": "Belarmino Quintero", "order": 8}}, {"type": "Feature", "geometry": {"type": "Point", "coordinates": [-74.2182445, 4.5735243]}, "properties": {"id": 25194, "name": "Mart\u00edn gutierrez", "order": 9}}, {"type": "Feature", "geometry": {"type": "Point", "coordinates": [-74.2229197, 4.5723681]}, "properties": {"id": 13756, "name": "Yoiner Pinilla", "order": 10}}, {"type": "Feature", "geometry": {"type": "Point", "coordinates": [-74.2258054, 4.5751749]}, "properties": {"id": 265, "name": "Alejandro Su\u00e1rez", "order": 11}}, {"type": "Feature", "geometry": {"type": "Point", "coordinates": [-74.222955, 4.5742406]}, "properties": {"id": 154, "name": "William humberto Mendez molano", "order": 12}}, {"type": "Feature", "geometry": {"type": "Point", "coordinates": [-74.2220269, 4.576998]}, "properties": {"id": 445, "name": "katerine Prieto", "order": 13}}, {"type": "Feature", "geometry": {"type": "Point", "coordinates": [-74.221656, 4.5800215]}, "properties": {"id": 702, "name": "Camilo Andres Cano", "order": 14}}, {"type": "Feature", "geometry": {"type": "Point", "coordinates": [-74.2278483, 4.5827622]}, "properties": {"id": 609, "name": "Ferredeposito LyJ Duarte sas Ferredeposito LyJ Duarte sas", "order": 15}}, {"type": "Feature", "geometry": {"type": "Point", "coordinates": [-74.2277979, 4.5826646]}, "properties": {"id": 11603, "name": "idier Taquinas florez", "order": 16}}, {"type": "Feature", "geometry": {"type": "Point", "coordinates": [-74.2368451, 4.5764323]}, "properties": {"id": 303, "name": "jose capera", "order": 17}}, {"type": "Feature", "geometry": {"type": "Point", "coordinates": [-74.2380053, 4.5720643]}, "properties": {"id": 3876, "name": "Gabriel L\u00f3pez", "order": 18}}, {"type": "Feature", "geometry": {"type": "Point", "coordinates": [-74.235094, 4.5681233]}, "properties": {"id": 260, "name": "Facundo sosa", "order": 19}}, {"type": "Feature", "geometry": {"type": "Point", "coordinates": [-74.2364507, 4.5685983]}, "properties": {"id": 541, "name": "Luis Alejandro Paiva Castillo", "order": 20}}, {"type": "Feature", "geometry": {"type": "Point", "coordinates": [-74.2371073, 4.5686948]}, "properties": {"id": 309, "name": "jose camelo", "order": 21}}, {"type": "Feature", "geometry": {"type": "Point", "coordinates": [-74.239828, 4.5681035]}, "properties": {"id": 321, "name": "Edilberto duitama", "order": 22}}, {"type": "Feature", "geometry": {"type": "Point", "coordinates": [-74.2419799, 4.5700117]}, "properties": {"id": 641, "name": "Jerson Estupi\u00f1an", "order": 23}}, {"type": "Feature", "geometry": {"type": "Point", "coordinates": [-74.2439607, 4.5683857]}, "properties": {"id": 15017, "name": "Marcela Sana", "order": 24}}, {"type": "Feature", "geometry": {"type": "Point", "coordinates": [-74.240034, 4.572094]}, "properties": {"id": 3884, "name": "Armando Mayorga", "order": 25}}, {"type": "Feature", "geometry": {"type": "Point", "coordinates": [-74.2439979, 4.5754815]}, "properties": {"id": 391, "name": "leonel cubides", "order": 26}}, {"type": "Feature", "geometry": {"type": "Point", "coordinates": [-74.2433805, 4.5759001]}, "properties": {"id": 390, "name": "andrea garzon", "order": 27}}, {"type": "Feature", "geometry": {"type": "Point", "coordinates": [-74.2417096, 4.576192]}, "properties": {"id": 178, "name": "sebastian mondragon", "order": 28}}, {"type": "Feature", "geometry": {"type": "Point", "coordinates": [-74.2424961, 4.5771472]}, "properties": {"id": 17864, "name": "edgar Garzon", "order": 29}}, {"type": "Feature", "geometry": {"type": "Point", "coordinates": [-74.245707, 4.5767307]}, "properties": {"id": 595, "name": "Yaneth Pinzon", "order": 30}}, {"type": "Feature", "geometry": {"type": "LineString", "coordinates": [[-74.213834, 4.5819778], [-74.2147005, 4.5818952], [-74.2140788, 4.5819486], [-74.2154003, 4.5830175], [-74.2157901, 4.5802371], [-74.2177639, 4.5808398], [-74.2170483, 4.5719154], [-74.2173996, 4.5711256], [-74.2182445, 4.5735243], [-74.2229197, 4.5723681], [-74.2258054, 4.5751749], [-74.222955, 4.5742406], [-74.2220269, 4.576998], [-74.221656, 4.5800215], [-74.2278483, 4.5827622], [-74.2277979, 4.5826646], [-74.2368451, 4.5764323], [-74.2380053, 4.5720643], [-74.235094, 4.5681233], [-74.2364507, 4.5685983], [-74.2371073, 4.5686948], [-74.239828, 4.5681035], [-74.2419799, 4.5700117], [-74.2439607, 4.5683857], [-74.240034, 4.572094], [-74.2439979, 4.5754815], [-74.2433805, 4.5759001], [-74.2417096, 4.576192], [-74.2424961, 4.5771472], [-74.245707, 4.5767307]]}, "properties": {"Route": "Soacha_1"}}]}