{"type": "FeatureCollection", "features": [{"type": "Feature", "geometry": {"type": "Point", "coordinates": [-74.0875979, 4.7408392]}, "properties": {"id": 29379, "name": "ferreteria juanjo", "order": 1}}, {"type": "Feature", "geometry": {"type": "Point", "coordinates": [-74.0868192, 4.7404831]}, "properties": {"id": 6891, "name": "Jairo Dur\u00e1n", "order": 2}}, {"type": "Feature", "geometry": {"type": "Point", "coordinates": [-74.0908919, 4.7393224]}, "properties": {"id": 18050, "name": "Viviana Z\u00fa\u00f1iga", "order": 3}}, {"type": "Feature", "geometry": {"type": "Point", "coordinates": [-74.0902153, 4.7389162]}, "properties": {"id": 23133, "name": "Roberto moreno", "order": 4}}, {"type": "Feature", "geometry": {"type": "Point", "coordinates": [-74.0933441, 4.7399552]}, "properties": {"id": 22369, "name": "Martha Liliana Morales pelaez", "order": 5}}, {"type": "Feature", "geometry": {"type": "Point", "coordinates": [-74.0967323, 4.736837]}, "properties": {"id": 24757, "name": "Alvaro camelo", "order": 6}}, {"type": "Feature", "geometry": {"type": "Point", "coordinates": [-74.0949944, 4.7342751]}, "properties": {"id": 23823, "name": "Manuel Rodr\u00edguez Rodr\u00edguez", "order": 7}}, {"type": "Feature", "geometry": {"type": "Point", "coordinates": [-74.0984049, 4.7350698]}, "properties": {"id": 17064, "name": "Andr\u00e9s calderon", "order": 8}}, {"type": "Feature", "geometry": {"type": "Point", "coordinates": [-74.0968483, 4.7330947]}, "properties": {"id": 4359, "name": "Marcela leon", "order": 9}}, {"type": "Feature", "geometry": {"type": "Point", "coordinates": [-74.0929614, 4.7295712]}, "properties": {"id": 2394, "name": "DIANA NEIRA", "order": 10}}, {"type": "Feature", "geometry": {"type": "Point", "coordinates": [-74.093275, 4.7270498]}, "properties": {"id": 4453, "name": "silvestre Serrano", "order": 11}}, {"type": "Feature", "geometry": {"type": "Point", "coordinates": [-74.094575, 4.728116]}, "properties": {"id": 22093, "name": "guillermo guzman", "order": 12}}, {"type": "Feature", "geometry": {"type": "Point", "coordinates": [-74.0949157, 4.7248309]}, "properties": {"id": 5818, "name": "danilo bernal", "order": 13}}, {"type": "Feature", "geometry": {"type": "Point", "coordinates": [-74.0917936, 4.7252983]}, "properties": {"id": 20523, "name": "Jorge Triana", "order": 14}}, {"type": "Feature", "geometry": {"type": "Point", "coordinates": [-74.0912315, 4.7247372]}, "properties": {"id": 22950, "name": "serafin Rodr\u00edguez", "order": 15}}, {"type": "Feature", "geometry": {"type": "Point", "coordinates": [-74.0893722, 4.7261411]}, "properties": {"id": 2360, "name": "Camilo Cadena", "order": 16}}, {"type": "Feature", "geometry": {"type": "Point", "coordinates": [-74.0894573, 4.7262729]}, "properties": {"id": 1388, "name": "Edward Bedoya", "order": 17}}, {"type": "Feature", "geometry": {"type": "Point", "coordinates": [-74.0868577, 4.725161]}, "properties": {"id": 4634, "name": "jose eccehomo S\u00e1enz pineda", "order": 18}}, {"type": "Feature", "geometry": {"type": "Point", "coordinates": [-74.0869725, 4.7311285]}, "properties": {"id": 4763, "name": "Socorro Arguello Ardila", "order": 19}}, {"type": "Feature", "geometry": {"type": "Point", "coordinates": [-74.0757943, 4.7391688]}, "properties": {"id": 21439, "name": "Luz Dary valdez", "order": 20}}, {"type": "Feature", "geometry": {"type": "Point", "coordinates": [-74.0760231, 4.7386194]}, "properties": {"id": 3873, "name": "frank contreras", "order": 21}}, {"type": "Feature", "geometry": {"type": "Point", "coordinates": [-74.0758555, 4.738734]}, "properties": {"id": 2386, "name": "Luz Dary Valdez", "order": 22}}, {"type": "Feature", "geometry": {"type": "Point", "coordinates": [-74.0760781, 4.7384984]}, "properties": {"id": 28678, "name": "FRANCISCO CONTRERAS", "order": 23}}, {"type": "Feature", "geometry": {"type": "Point", "coordinates": [-74.0564884, 4.7252559]}, "properties": {"id": 18640, "name": "edwin cardona", "order": 24}}, {"type": "Feature", "geometry": {"type": "Point", "coordinates": [-74.055301, 4.7249018]}, "properties": {"id": 8844, "name": "Manuel velasquez", "order": 25}}, {"type": "Feature", "geometry": {"type": "Point", "coordinates": [-74.0554439, 4.7214024]}, "properties": {"id": 32591, "name": "jose huertas", "order": 26}}, {"type": "Feature", "geometry": {"type": "Point", "coordinates": [-74.0559838, 4.7159021]}, "properties": {"id": 4834, "name": "Orlando Acevedo Penagos", "order": 27}}, {"type": "Feature", "geometry": {"type": "Point", "coordinates": [-74.0552071, 4.7149676]}, "properties": {"id": 6089, "name": "rosalba G\u00f3mez moreno", "order": 28}}, {"type": "Feature", "geometry": {"type": "LineString", "coordinates": [[-74.0875979, 4.7408392], [-74.0868192, 4.7404831], [-74.0908919, 4.7393224], [-74.0902153, 4.7389162], [-74.0933441, 4.7399552], [-74.0967323, 4.736837], [-74.0949944, 4.7342751], [-74.0984049, 4.7350698], [-74.0968483, 4.7330947], [-74.0929614, 4.7295712], [-74.093275, 4.7270498], [-74.094575, 4.728116], [-74.0949157, 4.7248309], [-74.0917936, 4.7252983], [-74.0912315, 4.7247372], [-74.0893722, 4.7261411], [-74.0894573, 4.7262729], [-74.0868577, 4.725161], [-74.0869725, 4.7311285], [-74.0757943, 4.7391688], [-74.0760231, 4.7386194], [-74.0758555, 4.738734], [-74.0760781, 4.7384984], [-74.0564884, 4.7252559], [-74.055301, 4.7249018], [-74.0554439, 4.7214024], [-74.0559838, 4.7159021], [-74.0552071, 4.7149676]]}, "properties": {"Route": "Suba_1"}}]}